{"restaurants": [{"name": "ラーメン二郎 三田本店", "zipcode": "108-0073", "address": "東京都港区三田2-16-4", "tel": "非公開", "opens": "9:00～15:0017:00～20:00", "holidays": "日曜・祝日(臨時休業の場合あり)", "access": "JR田町駅 徒歩１2分都営地下鉄三田駅 徒歩8分南北線『白金高輪駅』 徒歩12分三田駅から541m", "opened_in": "1968年創業", "menu": "ラーメン 600円ぶた入りラーメン 700円ぶたダブルラーメン 800円大ラーメン 650円ぶた入り大ラーメン 750円ぶたダブル大ラーメン 850円", "coordinate": {"lat": 35.64808, "lng": 139.741614}}, {"name": "ラーメン二郎 目黒店", "zipcode": "153-0063", "address": "東京都目黒区目黒3-7-2", "tel": "03-3793-2785", "opens": "12:00～16:0018:00～24:00", "holidays": "水曜", "access": "JR目黒駅 徒歩12分バス停 大鳥神社前から徒歩5分目黒駅から783m", "opened_in": "1995年7月", "menu": "小ラーメン 500円小ラーメン豚入り 600円小ラーメンW豚入り 700円大ラーメン 600円大ラーメン豚入り 700円大ラーメンW豚入り 800円", "coordinate": {"lat": 35.634192, "lng": 139.707051}}, {"name": "ラーメン二郎 仙川店", "zipcode": "182-0002", "address": "東京都調布市仙川町1-10-17", "tel": "03-3326-0311", "opens": "17:30～23:30", "holidays": "日曜", "access": "京王線仙川駅 徒歩2～3分仙川駅から117m", "opened_in": "1995年10月", "menu": "ラーメン 700円豚入りラーメン 800円豚ダブルラーメン 900円大盛ラーメン 800円大盛豚入りラーメン 900円大ダブルラーメン 1000円麺少なめ 700円", "coordinate": {"lat": 35.661771, "lng": 139.583891}}, {"name": "ラーメン二郎 歌舞伎町店", "zipcode": "160-0021", "address": "東京都新宿区歌舞伎町1-19-3", "tel": "03-3205-1726", "opens": "[月～土] 11:30～翌3:00[日・祝] 11:30～翌2:00", "holidays": "無休", "access": "西武新宿駅 徒歩3分JR新宿駅 徒歩8分西武新宿駅から173m", "opened_in": "1997年8月", "menu": "普通盛 700円チャーシュー 800円チャーシューダブル 900円大盛 800円大盛チャーシュー 900円大盛チャーシューダブル 1000円つけ麺普通 800円つけ麺大盛 900円キムチ 200円煮玉子 100円", "coordinate": {"lat": 35.695795, "lng": 139.701905}}, {"name": "ラーメン二郎 品川店", "zipcode": "140-0001", "address": "東京都品川区北品川1-18-5 サンサーラ品川", "tel": "03-3474-4026", "opens": "[月～金]11:00～14:30、17:00～21:00[土]11:00～14:00", "holidays": "日曜・祝日", "access": "ＪＲ・京急品川駅港南口から八ツ山橋方面へ 徒歩10分北品川駅から383m", "opened_in": "1997年11月", "menu": "普通盛 小 700円普通盛焼豚 小ブタ 800円普通盛焼豚大 小ダブル 900円大盛 大 800円大盛焼豚 大ブタ 900円大盛焼豚大 大ダブル 1000円煮玉子 100円", "coordinate": {"lat": 35.623913, "lng": 139.743029}}, {"name": "ラーメン二郎 新宿小滝橋通り店", "zipcode": "160-0023", "address": "東京都新宿区西新宿7-5-5 １Ｆ", "tel": "03-3371-5010", "opens": "[月～土]11:00～25:00[日・祝]11:00～22:00月が祝日の場合は日曜25:00まで", "holidays": "無休", "access": "都営地下鉄大江戸線「新宿西口駅」下車 徒歩5分西武新宿駅から147m", "opened_in": "1999年2月", "menu": "小ラーメン 700円ぶた入りラーメン 850円ぶた入りWラーメン 1100円大ラーメン 800円大盛ぶた入りラーメン 950円大盛ぶた入りWラーメン 1200円大二郎 900円小つけ麺 800円ぶた入りつけ麺 950円ぶた入りWつけ麺 1200円大つけ麺 900円大盛ぶた入りつけ麺 1050円大盛ぶた入りWつけ麺 1300円大二郎つけ麺 1000円", "coordinate": {"lat": 35.696459, "lng": 139.698458}}, {"name": "ラーメン二郎 環七新代田店", "zipcode": "155-0033", "address": "東京都世田谷区代田5-29-5 櫻井ビル 1F", "tel": "非公開", "opens": "[火～土]11:00～14:00、17:00～20:00[日]11:00～16:00", "holidays": "月曜・祝日", "access": "京王井の頭線新代田駅 徒歩1分(出口を出て左へ直進)新代田駅から83m", "opened_in": "2000年1月", "menu": "小 700円小豚 800円小W 900円(売切)大は現金+100円", "coordinate": {"lat": 35.661922, "lng": 139.660425}}, {"name": "ラーメン二郎 八王子野猿街道店２", "zipcode": "192-0355", "address": "東京都八王子市堀之内2-13-16", "tel": "非公開", "opens": "[火～金]11:00～14:00、16:30～23:00[土]11:00～15:00、16:30～23:00[日]11:00～17:00", "holidays": "月曜", "access": "京王堀之内駅 徒歩10分(0.9km)京王堀之内駅から555m", "opened_in": "2000年8月", "menu": "プチ二郎 680円小ラーメン 730円大ラーメン 830円小ラーメン豚入り 880円大ラーメン豚入り 980円小つけ麺 880円大つけ麺 980円小つけ麺豚入り 1030円大つけ麺豚入り 1130円うずらの卵(5ヶ) 100円缶ビール 300円", "coordinate": {"lat": 35.629515, "lng": 139.401367}}, {"name": "ラーメン二郎 池袋東口店", "zipcode": "171-0022", "address": "東京都豊島区南池袋2-27-17 1F", "tel": "03-3980-0210", "opens": "[火～日]11:00～23:00", "holidays": "月曜", "access": "池袋駅東口 徒歩5分池袋駅から317m", "opened_in": "2001年2月", "menu": "ラーメン 700円ぶた入りラーメン 800円ぶたダブルラーメン 900円大盛ラーメン 800円ぶた入り大ラーメン 900円ぶたダブル大ラーメン 1,000円煮たまご 100円夏季限定つけめん 800円大つけめん 900円", "coordinate": {"lat": 35.728273, "lng": 139.713833}}, {"name": "ラーメン二郎 新小金井街道店", "zipcode": "184-0015", "address": "東京都小金井市貫井北町3-5-7", "tel": "042-387-4140", "opens": "[火～金]17:00～24:00[土]12:00～23:00[日・祝]12:00～19:00", "holidays": "月曜", "access": "中央線武蔵小金井駅 徒歩16分(1.3km)武蔵小金井駅から1,197m", "opened_in": "2001年3月", "menu": "小ラーメン 700円小豚入りラーメン 850円大ラーメン 800円大豚入りラーメン 950円小つけ麺 850円小つけ麺豚入り 1000円大つけ麺 950円大つけ麺豚入り 1100円ミニラーメン 650円しょうが 50円うずら卵(5個) 100円かつお魚粉 100円特製煮玉子(京風味) 100円黒烏龍茶(350ml) 200円ビール(中ビン) 500円", "coordinate": {"lat": 35.708436, "lng": 139.496208}}, {"name": "ラーメン二郎 亀戸店", "zipcode": "136-0071", "address": "東京都江東区亀戸4-35-17 エレガントコーポラス101号", "tel": "03-3637-2681", "opens": "[月・水～日]11:00～14:3017:30～21:30", "holidays": "火曜", "access": "JR亀戸駅 徒歩8分亀戸駅から470m", "opened_in": "2001年4月", "menu": "ラーメン(ブタ2枚入り) 690円ブタ入りラーメン(ブタ5枚入り) 790円大盛りラーメン(ブタ2枚入り) 790円ブタ入り大ラーメン(ブタ5枚入り) 890円汁なし 100円増しタマネギキムチ 100円生卵 100円(現金にて)", "coordinate": {"lat": 35.70191, "lng": 139.826678}}, {"name": "ラーメン二郎 京急川崎店", "zipcode": "210-0001", "address": "神奈川県川崎市川崎区本町2-10", "tel": "非公開", "opens": "[月～金]11:00～14:00、18:00～22:00[土]11:00～16:00", "holidays": "日曜・祝日", "access": "京急川崎駅 徒歩10分JR川崎駅 徒歩12分京急川崎駅から474m", "opened_in": "2001年4月", "menu": "小ラーメン 730円小ブタ 830円小ダブル 930円大ラーメン 830円大ブタ 930円大ダブル 1,030円", "coordinate": {"lat": 35.534905, "lng": 139.705737}}, {"name": "ラーメン二郎 府中店", "zipcode": "183-0022", "address": "東京都府中市宮西町1-15-5 関野屋ビル1F", "tel": "非公開", "opens": "[月～土]11:30～14:00、17:30～22:00", "holidays": "日曜・祝日", "access": "京王線府中駅南口「国際通り」徒歩3分ＪＲ府中本町駅 徒歩9分府中駅から269m", "opened_in": "2001年5月", "menu": "小ラーメン 700円ブタ入りラーメン 850円大ラーメン 800円ブタ入り大ラーメン 950円全部入り 1050円小つけ麺 800円ブタ入り小つけ麺 950円大つけ麺 900円ブタ入り大つけ麺 1050円大盛り 100円温泉玉子 100円チーズ 100円", "coordinate": {"lat": 35.672028, "lng": 139.477291}}, {"name": "ラーメン二郎 松戸駅前店", "zipcode": "271-0091", "address": "千葉県松戸市本町17-21", "tel": "非公開", "opens": "[火～木]11:30～14:30、18:00～21:00[金]11:30～14:30、18:00～21:30[土]11:00～14:30、18:00～21:00[日]11:00～15:00", "holidays": "月曜", "access": "JR松戸駅西口 徒歩5分松戸駅から198m", "opened_in": "2002年5月", "menu": "ラーメン 680円ぶた入りラーメン 780円ぶたダブルラーメン 880円大盛ラーメン 780円ぶた入り大盛ラーメン 880円ぶたダブル大盛ラーメン 980円", "coordinate": {"lat": 35.786002, "lng": 139.899416}}, {"name": "ラーメン二郎 めじろ台法政大学前店", "zipcode": "193-0943", "address": "東京都八王子市寺田町233-2", "tel": "非公開", "opens": "[月～水・金・土]11:30～14:30、18:00～21:00", "holidays": "日曜・祝日・木曜", "access": "めじろ台駅 徒歩19分(1.8km)めじろ台駅から1,578m", "opened_in": "2002年5月", "menu": "小ラーメン 700円ぶた小ラーメン 800円ダブル小ラーメン 950円ミニらーめん(麺1/2) 600円大ラーメン 850円ぶた大ラーメン 900円ダブル大ラーメン 1050円つけ麺 +150円(スープ割り可、麺かため／あつもり不可)つけ味ラーメン +150円汁なしラーメン +100円生たまご(別皿) 50円", "coordinate": {"lat": 35.629483, "lng": 139.310357}}, {"name": "ラーメン二郎 荻窪店", "zipcode": "167-0051", "address": "東京都杉並区荻窪4-33-1", "tel": "非公開", "opens": "[月～水・金・土]17:00～22:00", "holidays": "木曜・祝日", "access": "JR荻窪駅南口 徒歩5分荻窪駅から582m", "opened_in": "2002年10月", "menu": "ラーメン 650円ブタ入りラーメン 750円ブタダブルラーメン 850円塩ラーメン 700円麺大盛 100円ブタ追加 100円うずら卵 100円発砲酒 250円生たまご 50円かつおぶし 50円おんたま 50円生とうがらし 20円", "coordinate": {"lat": 35.703593, "lng": 139.626289}}, {"name": "ラーメン二郎 上野毛店", "zipcode": "158-0093", "address": "東京都世田谷区上野毛1-26-16", "tel": "非公開", "opens": "[月～金] 11:00～14:00、18:00～22:00[土] 11:00～14:30", "holidays": "日曜・祝日", "access": "東急大井町線上野毛駅 徒歩2分上野毛駅から45m", "opened_in": "2002年11月", "menu": "小ラーメン 700円小ぶた入り 800円小ぶたダブル 900円大ラーメン 750円大ぶた入り 850円大ぶたダブル 950円つけ麺 +150円味付け玉子 100円生玉子 50円ふりふりカレー 50円缶ウーロン茶 100円", "coordinate": {"lat": 35.612421, "lng": 139.638978}}, {"name": "ラーメン二郎 京成大久保店", "zipcode": "274-0072", "address": "千葉県船橋市三山2-1-11", "tel": "047-472-5559", "opens": "[月～土]11:00～14:00、17:00～20:00", "holidays": "日曜・祝日", "access": "京成大久保駅 徒歩10分京成大久保駅から616m", "opened_in": "2002年12月", "menu": "ミニ 600円小ラーメン 700円小ブタ 800円小ダブル 900円大ラーメン 800円大ブタ 900円大ダブル 1000円小つけ麺 800円大つけ麺 900円みそラーメン 800円", "coordinate": {"lat": 35.691485, "lng": 140.049615}}, {"name": "ラーメン二郎 環七一之江店", "zipcode": "132-0003", "address": "東京都江戸川区一之江8-3-4", "tel": "非公開", "opens": "[月・火・木・金] 11:00～14:00 17:30～20:30[土・日・祝]10:20～14:00 17:00～19:30", "holidays": "水曜", "access": "一之江駅 徒歩3分(0.2km)一之江駅から210m", "opened_in": "2003年11月", "menu": "ぶた2枚入 小ラーメン 650円ぶた5枚入 小ラーメン 750円ぶたダブル 小ラーメン 850円ぶた2枚入 大ラーメン 750円ぶた5枚入 大ラーメン 850円ぶたダブル 大ラーメン 950円汁なしラーメン 650円汁なし 大盛ラーメン 750円味付け玉子 100円生たまご 50円汁なしのぶたマシ 100円汁なしのぶたダブル 200円", "coordinate": {"lat": 35.684088, "lng": 139.881951}}, {"name": "ラーメン二郎 相模大野店", "zipcode": "252-0303", "address": "神奈川県相模原市南区相模大野6-14-9", "tel": "非公開", "opens": "[火～金]10:30～14:00、17:30～21:00[土・第2、4日曜日]11:00～15:00", "holidays": "月曜・第1、3、5日曜", "access": "相模大野駅 徒歩8分(0.7km)相模大野駅から522m", "opened_in": "2003年12月", "menu": "少なめラーメン 680円ラーメン 680円大ラーメン 800円ブタ入り +250円つけ麺 +150円お茶漬け～麺 +200円賄い +200円(夏季限定)グッチーズカレー +200円(冬季限定)生たまご極上(さがみっこ) 80円生たまご+すき焼きのタレ 100円ミックス節 100円和っ!カレー 100円", "coordinate": {"lat": 35.529931, "lng": 139.432934}}, {"name": "ラーメン二郎 横浜関内店", "zipcode": "231-0033", "address": "神奈川県横浜市中区長者町6-94", "tel": "非公開", "opens": "[日～火・木～土]11:00～14:30、18:00～22:00", "holidays": "水曜", "access": "横浜地下鉄伊勢佐木長者町駅 徒歩3分京急本線日の出町駅 徒歩8分JR関内駅 徒歩10分伊勢佐木長者町駅から225m", "opened_in": "2004年10月", "menu": "小ラーメン 690円小ぶた 790円小ぶたダブル 890円大ラーメン 740円大ぶた 840円大ぶたダブル 940円汁なし +80円味つけ玉子 80円ニラキムチ 80円粉チーズ 100円ネギ 100円生玉子 50円", "coordinate": {"lat": 35.442139, "lng": 139.630704}}, {"name": "〒101-0051 ラーメン二郎 神田神保町店", "zipcode": "", "address": "東京都千代田区神田神保町2-4-11 松好ビル1F", "tel": "非公開", "opens": "[月〜金]11:00〜17:00[土]11:00〜17:00", "holidays": "日曜・祝日・不定休", "access": "神保町駅A3 or A4出口 徒歩1分神保町駅から184m", "opened_in": "2004年11月", "menu": "小 700円小豚 800円小豚W 900円大 750円大豚 850円大豚W 950円生玉子 50円", "coordinate": {"lat": 35.696378, "lng": 139.756473}}, {"name": "ラーメン二郎 小岩店", "zipcode": "", "address": "東京都江戸川区西小岩3-31-13", "tel": "非公開", "opens": "[月～金]10:30～15:00", "holidays": "土曜・日曜・祝日", "access": "小岩駅 徒歩3分(0.2km)小岩駅から245m", "opened_in": "2005年11月", "menu": "小ラーメン(ブタ2枚) 700円小豚入り(ブタ4枚程度) 850円大ラーメン（(ブタ2枚) 800円大豚入り(ブタ4枚程度) 950円少なめ(ブタ2枚) 650円半分(ブタ2枚) 600円豚増し券 150円缶ウーロン茶 100円", "coordinate": {"lat": 35.734954, "lng": 139.88001}}, {"name": "ラーメン二郎 ひばりヶ丘駅前店", "zipcode": "", "address": "東京都西東京市谷戸町3-27-24 ひばりがおかプラザ1F", "tel": "非公開", "opens": "[月～金] 11:30～14:30、17:45～20:45[土]10:30～16:00", "holidays": "日曜・祝日（不定休）", "access": "西武池袋線ひばりが丘駅 徒歩3分(0.2km)ひばりケ丘駅から257m", "opened_in": "2006年6月", "menu": "少なめ(麺少なめ、豚1枚) 650円ラーメン(豚2枚) 700円ラーメン豚入り(豚4枚) 800円大ラーメン(豚2枚) 800円大ラーメン豚入り(豚4枚) 900円", "coordinate": {"lat": 35.750006, "lng": 139.543712}}, {"name": "ラーメン二郎 桜台駅前店", "zipcode": "", "address": "東京都練馬区桜台1-5-1", "tel": "非公開", "opens": "[月～金]17:30～23:30[土]10:00～16:00頃", "holidays": "日曜・祝日（不定休）", "access": "西武池袋線桜台駅 徒歩30秒(0.1km)桜台駅から55m", "opened_in": "2007年1月", "menu": "ラーメン 700円小豚入り 850円大ラーメン 800円大豚入り 950円生たまご(別皿) 50円黒ウーロン 180円", "coordinate": {"lat": 35.738807, "lng": 139.661859}}, {"name": "ラーメン二郎 栃木街道店", "zipcode": "", "address": "栃木県下都賀郡壬生町本丸2-15-67", "tel": "非公開", "opens": "[月～金]11:30～14:45、18:00～21:00[土]11:30～15:30", "holidays": "日曜・祝日", "access": "壬生駅 徒歩12分(1.0km)壬生駅から912m", "opened_in": "2007年11月", "menu": "ラーメン 670円ラーメン豚入り 820円大ラーメン 770円大ラーメン豚入り 920円カツオくん 100円うずら(5こ) 100円生玉子(那須御養卵) 50円ショウガ 50円岩下のピリ辛らっきょう 100円鰹ぶし(1pac) 50円", "coordinate": {"lat": 36.422875, "lng": 139.79488}}, {"name": "ラーメン二郎 立川店", "zipcode": "", "address": "東京都立川市柴崎町2-10-1", "tel": "非公開", "opens": "[月・火・木・金]11:30～14:30、18:00～21:00[土]11:30～14:30", "holidays": "水曜・日曜・祝日", "access": "JR立川駅南口 徒歩6分(0.5km)立川南駅から279m", "opened_in": "2008年4月", "menu": "小ラーメン 650円小ぶた増し 750円小ぶたダブル 850円麺少なめ 650円麺少なめぶた増し 750円麺少なめぶたダブル 850円大ラーメン 750円大ぶた増し 850円大ぶたダブル 950円黒烏龍茶 200円", "coordinate": {"lat": 35.696508, "lng": 139.409527}}, {"name": "ラーメン二郎 大宮店", "zipcode": "", "address": "埼玉県さいたま市大宮区下町1-25", "tel": "非公開", "opens": "[月～日]11:00～14:00、17:00～22:00", "holidays": "無休", "access": "大宮駅東口 徒歩4分大宮駅から389m", "opened_in": "2008年8月", "menu": "ラーメン 650円豚増しラーメン 750円大ラーメン 700円豚増し大ラーメン 800円豚W大ラーメン 900円特大ラーメン 800円特大豚増しラーメン 900円特大豚Wラーメン 1000円味付ウズラ 100円おみやげチャーシュー半分(300g) 600円おみやげチャーシュー(600g) 1200円おみやげ油そば チャーシュー無し 300円おみやげ油そば 薄切りチャーシュー付 450円", "coordinate": {"lat": 35.90344, "lng": 139.626285}}, {"name": "ラーメン二郎 千住大橋駅前店", "zipcode": "", "address": "東京都足立区千住橋戸町10-8", "tel": "非公開", "opens": "[月～水・金]11:00～14:00、18:00～21:00［土］11:00～15:00", "holidays": "日曜、木曜、祝祭日", "access": "京成線千住大橋駅 徒歩10秒千住大橋駅から25m", "opened_in": "2009年4月", "menu": "小ラーメン 700円小豚 850円小豚ダブル 950円大ラーメン 800円大豚 950円大ダブル 1,050円生たまご 50円", "coordinate": {"lat": 35.742588, "lng": 139.797045}}, {"name": "ラーメン二郎 茨城守谷店", "zipcode": "", "address": "茨城県守谷市美園4-1-5 美園ビル1F", "tel": "非公開", "opens": "[日～火・木～土]11:30～14:30、18:00～22:00", "holidays": "水曜", "access": "美園三丁目下車 徒歩3分関東鉄道常総線南守谷駅 徒歩15分(1.2km)南守谷駅から1,149m", "opened_in": "2009年6月", "menu": "麺半分 650円少なめラーメン 700円小ラーメン 700円小ラーメン豚入り 850円大ラーメン 800円大ラーメン豚入り 950円生卵 50円うずら(5個）100円ウーロン茶 150円黒烏龍茶 180円ペプシ・スペシャル 180円", "coordinate": {"lat": 35.923957, "lng": 140.000822}}, {"name": "ラーメン二郎 湘南藤沢店", "zipcode": "", "address": "神奈川県藤沢市本町1-10-14", "tel": "非公開", "opens": "[水曜～月曜]11:00～14:30、17:30～21:30[日曜・祝日]11:00-20:00", "holidays": "火曜", "access": "JR東海道本線藤沢駅 徒歩9分小田急小田原線藤沢本町駅 徒歩9分藤沢駅から673m", "opened_in": "2010年3月", "menu": "ラーメン(2枚) 690円豚入り(5枚) 790円大ラーメン(2枚) 790円大豚入り(5枚) 890円つけ麺 +50円(夏季限定)汁なし +80円(つけ麺提供時は中止)生卵(別皿可) 50円ニラキムチ 100円粉チーズ 100円", "coordinate": {"lat": 35.34295, "lng": 139.482356}}, {"name": "ラーメン二郎 西台駅前店", "zipcode": "", "address": "東京都板橋区蓮根3-9-7", "tel": "非公開", "opens": "[月～金] 11:00～13:00、17:30～21:30[土] 11:00～14:30", "holidays": "日曜・祝日", "access": "都営三田線西台駅 徒歩2分都営三田線西台駅から79m", "opened_in": "2010年6月", "menu": "ミニ(麺半分160g・豚1枚) 600円小 700円小豚 800円小豚ダブル 900円大 750円大豚 850円大豚ダブル 950円つけ麺 プラス100円(夏季限定)油そば プラス100円(冬季限定)小ネギ 100円生玉子 50円味付うずら 100円缶ビール 250円缶チューハイ 150円", "coordinate": {"lat": 35.78687, "lng": 139.67479}}, {"name": "ラーメン二郎 中山駅前店", "zipcode": "", "address": "神奈川県横浜市緑区台村町 309-1 土井ビル1F", "tel": "非公開", "opens": "[金曜～水曜]11:00～14:00、18:00～21:30", "holidays": "木曜", "access": "JR横浜線中山駅 徒歩5分JR横浜線から212m", "opened_in": "2010年12月", "menu": "小ラーメン 690円小ラーメン豚入 790円小ラーメンW豚入 890円大ラーメン 790円大ラーメン豚入 890円大ラーメンW豚入 990円", "coordinate": {"lat": 35.513074, "lng": 139.53862}}, {"name": "ラーメン二郎 新橋店", "zipcode": "", "address": "東京都港区新橋3-3-7 1F", "tel": "非公開", "opens": "[月～土]11:00～14:00、17:00～21:00", "holidays": "日曜・祝日", "access": "新橋駅烏森口 徒歩5分内幸町駅 徒歩5分新橋駅から368m", "opened_in": "2011年9月", "menu": "ラーメン 700円ブタ入り 800円ブタW 900円大ラーメン 800円大ブタ入り 900円大ブタW 1,000円味玉子 100円", "coordinate": {"lat": 35.665592, "lng": 139.754263}}, {"name": "ラーメン二郎 仙台店", "zipcode": "", "address": "宮城県仙台市青葉区立町2-8", "tel": "非公開", "opens": "[火～土]11:30～14:30、17:00～21:00[日]11:30～19:30", "holidays": "月曜", "access": "JR仙台駅西口 徒歩20分地下鉄広瀬通り駅 徒歩10分", "opened_in": "2011年10月", "menu": "小ラーメン 690円小豚ラーメン 790円小Wラーメン 890円大ラーメン 790円大ラーメン豚 890円大ラーメンW 990円卵 50円しょうが 50円", "coordinate": {"lat": 38.261696, "lng": 140.86612}}, {"name": "ラーメン二郎 赤羽店", "zipcode": "", "address": "東京都北区赤羽1-22-3", "tel": "非公開", "opens": "[月～土]11:00～14:00、17:00～20:00", "holidays": "日曜・祝日", "access": "JR京浜東北線、埼京線、宇都宮線、湘南新宿ライン各線赤羽駅 徒歩2分赤羽駅から223m", "opened_in": "2012年1月", "menu": "小ラーメン 750円小豚ラーメン 850円小豚Wラーメン 950円大ラーメン 850円大豚ラーメン 950円大豚Wラーメン 1050円", "coordinate": {"lat": 35.77982, "lng": 139.720836}}, {"name": "ラーメン二郎 札幌店", "zipcode": "", "address": "北海道札幌市北区北6条西8-8-11", "tel": "非公開", "opens": "[月～金］11:00～14:00、17:30～21:00[土]11:00～15:00", "holidays": "日曜・祝日", "access": "ＪＲ札幌駅・地下鉄南北線さっぽろ駅 徒歩8分さっぽろ駅(札幌市営)から566m", "opened_in": "2013年3月", "menu": "ラーメン小 700円ラーメン大 800円小豚 850円大豚 950円普通 650円生卵 50円生姜 50円タマチ 100円", "coordinate": {"lat": 43.067395, "lng": 141.343821}}, {"name": "ラーメン二郎 会津若松駅前店", "zipcode": "", "address": "福島県会津若松市駅前町6-31", "tel": "非公開", "opens": "[月～金]11:00～14:00、17:00～21:00[土・日]11:00～18:00", "holidays": "月曜・第三日曜・日曜不定休", "access": "会津若松駅 徒歩2分会津若松駅から268m", "opened_in": "2014年9月", "menu": "小ラーメン 650円小ラーメン豚入り 800円大ラーメン 750円大ラーメン豚入り 900円しょうが 50円", "coordinate": {"lat": 37.506632, "lng": 139.93142}}, {"name": "ラーメン二郎 JR西口蒲田店", "zipcode": "", "address": "東京都大田区西蒲田7-6-9 1F", "tel": "非公開", "opens": "[木～火]11:00～14:30、18:00～22:00", "holidays": "水曜", "access": "JR蒲田駅 徒歩4分蒲田駅から190m", "opened_in": "2014年11月", "menu": "小(チャーシュー2枚) 730円小ブタ(チャーシュー4枚) 830円小ダブル(チャーシュー8枚) 950円大(チャーシュー2枚) 830円大ブタ(チャーシュー4枚) 930円大ダブル(チャーシュー8枚) 1,050円", "coordinate": {"lat": 35.56374, "lng": 139.714579}}, {"name": "ラーメン二郎 新潟店", "zipcode": "950-0088", "address": "新潟県新潟市中央区万代5-2-8", "tel": "非公開", "opens": "[火～金] 11:00～14:00、16:30～22:00[土・日] 10:00～16:00", "holidays": "月曜日・第3日曜日・祝日", "access": "JR新潟駅　徒歩10分くらい新潟駅から560m", "opened_in": "2015年11月", "menu": "ラーメン小 700円ラーメン小ぶた入り 850円 ラーメン大 800円ラーメン大ぶた入り 950円", "coordinate": {"lat": 37.91724, "lng": 139.060094}}, {"name": "ラーメン二郎 川越店", "zipcode": "350-1126", "address": "埼玉県川越市旭町1-4-15", "tel": "不明", "opens": "11:00～14:0018:00～21:00", "holidays": "月曜・木曜", "access": "西武バス「新宿町」下車徒歩0分JR川越線「川越駅」西口より徒歩10分東武鉄道 東上線「川越駅」西口より徒歩10分", "opened_in": "2017年3月", "menu": "小ラーメン 700円小豚ラーメン 850円大ラーメン 800円大豚ラーメン 950円", "coordinate": {"lat": 35.902726, "lng": 139.476589}}, {"name": "ラーメン二郎 京都店", "zipcode": "606-8117", "address": "京都府京都市左京区一乗寺里ノ前町4番", "tel": "不明", "opens": "[月～金]17:00〜23:00[土]12:00〜17:00", "holidays": "日曜・祝日", "access": "叡山電鉄 叡山本線「一乗寺駅」より、徒歩0分一乗寺駅から29m", "opened_in": "2017年4月", "menu": "ラーメン 730円 大ラーメン 830円 控えめ 680円", "coordinate": {"lat": 35.043928, "lng": 135.7875}}]}